{
"type": "FeatureCollection",
"name": "country_centroids",
"crs": { "type": "name", "properties": { "name": "urn:ogc:def:crs:OGC:1.3:CRS84" } },
"features": [
{ "type": "Feature", "properties": { "fid": 1, "GEOUNIT": "Zimbabwe", "name": "Zimbabwe", "Region": "Africa" }, "geometry": { "type": "Point", "coordinates": [ 29.851441201921897, -19.004204188216782 ] } },
{ "type": "Feature", "properties": { "fid": 2, "GEOUNIT": "Tanzania", "name": "Tanzania", "Region": "Africa" }, "geometry": { "type": "Point", "coordinates": [ 34.813099809324584, -6.27565408331664 ] } },
{ "type": "Feature", "properties": { "fid": 3, "GEOUNIT": "South Africa", "name": "South Africa", "Region": "Africa" }, "geometry": { "type": "Point", "coordinates": [ 25.083900925067287, -29.000340953423432 ] } },
{ "type": "Feature", "properties": { "fid": 4, "GEOUNIT": "Seychelles", "name": "Seychelles", "Region": "Africa" }, "geometry": { "type": "Point", "coordinates": [ 55.47603279124376, -4.660990935223645 ] } },
{ "type": "Feature", "properties": { "fid": 5, "GEOUNIT": "Rwanda", "name": "Rwanda", "Region": "Africa" }, "geometry": { "type": "Point", "coordinates": [ 29.919885152416292, -1.990338316925181 ] } },
{ "type": "Feature", "properties": { "fid": 6, "GEOUNIT": "Morocco", "name": "Morocco", "Region": "Africa" }, "geometry": { "type": "Point", "coordinates": [ -8.456157947977466, 29.837629546879221 ] } },
{ "type": "Feature", "properties": { "fid": 7, "GEOUNIT": "Kenya", "name": "Kenya", "Region": "Africa" }, "geometry": { "type": "Point", "coordinates": [ 37.795939729267644, 0.599880215445473 ] } },
{ "type": "Feature", "properties": { "fid": 8, "GEOUNIT": "Ghana", "name": "Ghana", "Region": "Africa" }, "geometry": { "type": "Point", "coordinates": [ -1.216765658072907, 7.953456435414079 ] } },
{ "type": "Feature", "properties": { "fid": 1, "GEOUNIT": "Thailand", "name": "Thailand", "Region": "Asia" }, "geometry": { "type": "Point", "coordinates": [ 101.002881303558965, 15.118157941833845 ] } },
{ "type": "Feature", "properties": { "fid": 2, "GEOUNIT": "Sri Lanka", "name": "Sri Lanka", "Region": "Asia" }, "geometry": { "type": "Point", "coordinates": [ 80.70108237823942, 7.61266509224142 ] } },
{ "type": "Feature", "properties": { "fid": 3, "GEOUNIT": "Maldives", "name": "Maldives", "Region": "Asia" }, "geometry": { "type": "Point", "coordinates": [ 73.457130041949583, 3.728709199880619 ] } },
{ "type": "Feature", "properties": { "fid": 4, "GEOUNIT": "Japan", "name": "Japan", "Region": "Asia" }, "geometry": { "type": "Point", "coordinates": [ 138.030895576917629, 37.592301353015692 ] } },
{ "type": "Feature", "properties": { "fid": 5, "GEOUNIT": "Indonesia", "name": "Indonesia", "Region": "Asia" }, "geometry": { "type": "Point", "coordinates": [ 117.240113117841815, -2.215054552382007 ] } },
{ "type": "Feature", "properties": { "fid": 6, "GEOUNIT": "India", "name": "India", "Region": "Asia" }, "geometry": { "type": "Point", "coordinates": [ 79.611976094512144, 22.885781980028948 ] } },
{ "type": "Feature", "properties": { "fid": 1, "GEOUNIT": "United States Virgin Islands", "name": "U.S. Virgin Is.", "Region": "Carribean" }, "geometry": { "type": "Point", "coordinates": [ -64.803015375239198, 17.955006239372292 ] } },
{ "type": "Feature", "properties": { "fid": 2, "GEOUNIT": "Puerto Rico", "name": "Puerto Rico", "Region": "Carribean" }, "geometry": { "type": "Point", "coordinates": [ -66.473076043502147, 18.228130546109508 ] } },
{ "type": "Feature", "properties": { "fid": 3, "GEOUNIT": "Anguilla", "name": "Anguilla", "Region": "Carribean" }, "geometry": { "type": "Point", "coordinates": [ -63.064989265356871, 18.223959502282636 ] } },
{ "type": "Feature", "properties": { "fid": 4, "GEOUNIT": "Cayman Islands", "name": "Cayman Is.", "Region": "Carribean" }, "geometry": { "type": "Point", "coordinates": [ -80.912133214704753, 19.428964972234947 ] } },
{ "type": "Feature", "properties": { "fid": 5, "GEOUNIT": "British Virgin Islands", "name": "British Virgin Is.", "Region": "Carribean" }, "geometry": { "type": "Point", "coordinates": [ -64.471469922047092, 18.525857545070618 ] } },
{ "type": "Feature", "properties": { "fid": 6, "GEOUNIT": "Turks and Caicos Islands", "name": "Turks and Caicos Is.", "Region": "Carribean" }, "geometry": { "type": "Point", "coordinates": [ -71.973878814427479, 21.830475717099503 ] } },
{ "type": "Feature", "properties": { "fid": 7, "GEOUNIT": "Trinidad and Tobago", "name": "Trinidad and Tobago", "Region": "Carribean" }, "geometry": { "type": "Point", "coordinates": [ -61.265679233468177, 10.457334081006891 ] } },
{ "type": "Feature", "properties": { "fid": 8, "GEOUNIT": "Saint Vincent and the Grenadines", "name": "St. Vin. and Gren.", "Region": "Carribean" }, "geometry": { "type": "Point", "coordinates": [ -61.201296949693692, 13.224722689966059 ] } },
{ "type": "Feature", "properties": { "fid": 9, "GEOUNIT": "Saint Lucia", "name": "Saint Lucia", "Region": "Carribean" }, "geometry": { "type": "Point", "coordinates": [ -60.96969922527704, 13.894794814534254 ] } },
{ "type": "Feature", "properties": { "fid": 10, "GEOUNIT": "Saint Kitts and Nevis", "name": "St. Kitts and Nevis", "Region": "Carribean" }, "geometry": { "type": "Point", "coordinates": [ -62.687552649584312, 17.264599504667423 ] } },
{ "type": "Feature", "properties": { "fid": 11, "GEOUNIT": "Aruba", "name": "Aruba", "Region": "Carribean" }, "geometry": { "type": "Point", "coordinates": [ -69.982677112509407, 12.520880383840192 ] } },
{ "type": "Feature", "properties": { "fid": 12, "GEOUNIT": "Curaçao", "name": "Curaçao", "Region": "Carribean" }, "geometry": { "type": "Point", "coordinates": [ -68.97119368797361, 12.19551675455773 ] } },
{ "type": "Feature", "properties": { "fid": 13, "GEOUNIT": "Jamaica", "name": "Jamaica", "Region": "Carribean" }, "geometry": { "type": "Point", "coordinates": [ -77.314825932659687, 18.156948776538872 ] } },
{ "type": "Feature", "properties": { "fid": 14, "GEOUNIT": "Grenada", "name": "Grenada", "Region": "Carribean" }, "geometry": { "type": "Point", "coordinates": [ -61.682201888919693, 12.11725043947459 ] } },
{ "type": "Feature", "properties": { "fid": 15, "GEOUNIT": "Saint Martin", "name": "St-Martin", "Region": "Carribean" }, "geometry": { "type": "Point", "coordinates": [ -63.059728514444942, 18.088886109462265 ] } },
{ "type": "Feature", "properties": { "fid": 16, "GEOUNIT": "Saint Barthelemy", "name": "St-Barthélemy", "Region": "Carribean" }, "geometry": { "type": "Point", "coordinates": [ -62.840677788420145, 17.898804511167977 ] } },
{ "type": "Feature", "properties": { "fid": 17, "GEOUNIT": "Dominican Republic", "name": "Dominican Rep.", "Region": "Carribean" }, "geometry": { "type": "Point", "coordinates": [ -70.50568896121294, 18.894330823339562 ] } },
{ "type": "Feature", "properties": { "fid": 18, "GEOUNIT": "Barbados", "name": "Barbados", "Region": "Carribean" }, "geometry": { "type": "Point", "coordinates": [ -59.559797002115729, 13.181454282224829 ] } },
{ "type": "Feature", "properties": { "fid": 19, "GEOUNIT": "The Bahamas", "name": "Bahamas", "Region": "Carribean" }, "geometry": { "type": "Point", "coordinates": [ -76.628430380163948, 24.290367022269894 ] } },
{ "type": "Feature", "properties": { "fid": 20, "GEOUNIT": "Antigua and Barbuda", "name": "Antigua and Barb.", "Region": "Carribean" }, "geometry": { "type": "Point", "coordinates": [ -61.794693427045459, 17.277499598624885 ] } },
{ "type": "Feature", "properties": { "fid": 1, "GEOUNIT": "Panama", "name": "Panama", "Region": "Central & South America" }, "geometry": { "type": "Point", "coordinates": [ -80.119151561247477, 8.517507974911183 ] } },
{ "type": "Feature", "properties": { "fid": 2, "GEOUNIT": "Nicaragua", "name": "Nicaragua", "Region": "Central & South America" }, "geometry": { "type": "Point", "coordinates": [ -85.030529695058675, 12.84709428964721 ] } },
{ "type": "Feature", "properties": { "fid": 3, "GEOUNIT": "Honduras", "name": "Honduras", "Region": "Central & South America" }, "geometry": { "type": "Point", "coordinates": [ -86.615166096335003, 14.826881651917764 ] } },
{ "type": "Feature", "properties": { "fid": 4, "GEOUNIT": "Guatemala", "name": "Guatemala", "Region": "Central & South America" }, "geometry": { "type": "Point", "coordinates": [ -90.364820085773346, 15.694036634963554 ] } },
{ "type": "Feature", "properties": { "fid": 5, "GEOUNIT": "Ecuador", "name": "Ecuador", "Region": "Central & South America" }, "geometry": { "type": "Point", "coordinates": [ -78.752019224989226, -1.42381612487738 ] } },
{ "type": "Feature", "properties": { "fid": 6, "GEOUNIT": "Costa Rica", "name": "Costa Rica", "Region": "Central & South America" }, "geometry": { "type": "Point", "coordinates": [ -84.192087677536222, 9.976344638396988 ] } },
{ "type": "Feature", "properties": { "fid": 7, "GEOUNIT": "Chile", "name": "Chile", "Region": "Central & South America" }, "geometry": { "type": "Point", "coordinates": [ -71.382562131777249, -37.73070989303509 ] } },
{ "type": "Feature", "properties": { "fid": 8, "GEOUNIT": "Brazil", "name": "Brazil", "Region": "Central & South America" }, "geometry": { "type": "Point", "coordinates": [ -53.097831126691275, -10.78777702460515 ] } },
{ "type": "Feature", "properties": { "fid": 9, "GEOUNIT": "Belize", "name": "Belize", "Region": "Central & South America" }, "geometry": { "type": "Point", "coordinates": [ -88.710104856428188, 17.200275090154324 ] } },
{ "type": "Feature", "properties": { "fid": 10, "GEOUNIT": "Argentina", "name": "Argentina", "Region": "Central & South America" }, "geometry": { "type": "Point", "coordinates": [ -65.179806925003035, -35.381348795262809 ] } },
{ "type": "Feature", "properties": { "fid": 1, "GEOUNIT": "United Kingdom", "name": "United Kingdom", "Region": "Europe" }, "geometry": { "type": "Point", "coordinates": [ -2.865631640838148, 54.123871557729359 ] } },
{ "type": "Feature", "properties": { "fid": 2, "GEOUNIT": "Switzerland", "name": "Switzerland", "Region": "Europe" }, "geometry": { "type": "Point", "coordinates": [ 8.208674706150367, 46.797858783616107 ] } },
{ "type": "Feature", "properties": { "fid": 3, "GEOUNIT": "Sweden", "name": "Sweden", "Region": "Europe" }, "geometry": { "type": "Point", "coordinates": [ 16.745580486944117, 62.779665193105878 ] } },
{ "type": "Feature", "properties": { "fid": 4, "GEOUNIT": "Spain", "name": "Spain", "Region": "Europe" }, "geometry": { "type": "Point", "coordinates": [ -3.647550473229147, 40.244486981148484 ] } },
{ "type": "Feature", "properties": { "fid": 5, "GEOUNIT": "Portugal", "name": "Portugal", "Region": "Europe" }, "geometry": { "type": "Point", "coordinates": [ -8.501043612683025, 39.59550671449788 ] } },
{ "type": "Feature", "properties": { "fid": 6, "GEOUNIT": "Norway", "name": "Norway", "Region": "Europe" }, "geometry": { "type": "Point", "coordinates": [ 15.348346562226197, 68.750155720549145 ] } },
{ "type": "Feature", "properties": { "fid": 7, "GEOUNIT": "Netherlands", "name": "Netherlands", "Region": "Europe" }, "geometry": { "type": "Point", "coordinates": [ 5.281447930069239, 52.10078990024477 ] } },
{ "type": "Feature", "properties": { "fid": 8, "GEOUNIT": "Montenegro", "name": "Montenegro", "Region": "Europe" }, "geometry": { "type": "Point", "coordinates": [ 19.238839392474105, 42.788902592907903 ] } },
{ "type": "Feature", "properties": { "fid": 9, "GEOUNIT": "Monaco", "name": "Monaco", "Region": "Europe" }, "geometry": { "type": "Point", "coordinates": [ 7.406276768562416, 43.752746267200919 ] } },
{ "type": "Feature", "properties": { "fid": 10, "GEOUNIT": "Malta", "name": "Malta", "Region": "Europe" }, "geometry": { "type": "Point", "coordinates": [ 14.405233164255208, 35.921496322054402 ] } },
{ "type": "Feature", "properties": { "fid": 11, "GEOUNIT": "Italy", "name": "Italy", "Region": "Europe" }, "geometry": { "type": "Point", "coordinates": [ 12.070012547689801, 42.796628487287087 ] } },
{ "type": "Feature", "properties": { "fid": 12, "GEOUNIT": "Ireland", "name": "Ireland", "Region": "Europe" }, "geometry": { "type": "Point", "coordinates": [ -8.13793568666852, 53.175448703996615 ] } },
{ "type": "Feature", "properties": { "fid": 13, "GEOUNIT": "Greece", "name": "Greece", "Region": "Europe" }, "geometry": { "type": "Point", "coordinates": [ 22.955557936914172, 39.074696230695643 ] } },
{ "type": "Feature", "properties": { "fid": 14, "GEOUNIT": "Germany", "name": "Germany", "Region": "Europe" }, "geometry": { "type": "Point", "coordinates": [ 10.38578050796694, 51.106981807463285 ] } },
{ "type": "Feature", "properties": { "fid": 15, "GEOUNIT": "France", "name": "France", "Region": "Europe" }, "geometry": { "type": "Point", "coordinates": [ -2.76172944518864, 42.17344011072386 ] } },
{ "type": "Feature", "properties": { "fid": 16, "GEOUNIT": "Finland", "name": "Finland", "Region": "Europe" }, "geometry": { "type": "Point", "coordinates": [ 26.274665604161942, 64.498846034870482 ] } },
{ "type": "Feature", "properties": { "fid": 17, "GEOUNIT": "Denmark", "name": "Denmark", "Region": "Europe" }, "geometry": { "type": "Point", "coordinates": [ 10.028009919085941, 55.981252959290764 ] } },
{ "type": "Feature", "properties": { "fid": 18, "GEOUNIT": "Czechia", "name": "Czechia", "Region": "Europe" }, "geometry": { "type": "Point", "coordinates": [ 15.31240162809943, 49.733412329487386 ] } },
{ "type": "Feature", "properties": { "fid": 19, "GEOUNIT": "Croatia", "name": "Croatia", "Region": "Europe" }, "geometry": { "type": "Point", "coordinates": [ 16.404128993951616, 45.080476305706512 ] } },
{ "type": "Feature", "properties": { "fid": 20, "GEOUNIT": "Bulgaria", "name": "Bulgaria", "Region": "Europe" }, "geometry": { "type": "Point", "coordinates": [ 25.215529086323333, 42.768903179715785 ] } },
{ "type": "Feature", "properties": { "fid": 21, "GEOUNIT": "Belgium", "name": "Belgium", "Region": "Europe" }, "geometry": { "type": "Point", "coordinates": [ 4.638735756776419, 50.639589635085514 ] } },
{ "type": "Feature", "properties": { "fid": 22, "GEOUNIT": "Austria", "name": "Austria", "Region": "Europe" }, "geometry": { "type": "Point", "coordinates": [ 14.126476099637822, 47.585494392035905 ] } },
{ "type": "Feature", "properties": { "fid": 1, "GEOUNIT": "United Arab Emirates", "name": "United Arab Emirates", "Region": "Middle East" }, "geometry": { "type": "Point", "coordinates": [ 54.300167101563794, 23.905281878496481 ] } },
{ "type": "Feature", "properties": { "fid": 2, "GEOUNIT": "Oman", "name": "Oman", "Region": "Middle East" }, "geometry": { "type": "Point", "coordinates": [ 56.091661548270466, 20.605153325703501 ] } },
{ "type": "Feature", "properties": { "fid": 3, "GEOUNIT": "Israel", "name": "Israel", "Region": "Middle East" }, "geometry": { "type": "Point", "coordinates": [ 34.995339976527461, 31.442606912149113 ] } },
{ "type": "Feature", "properties": { "fid": 1, "GEOUNIT": "United States of America", "name": "United States of America", "Region": "North America" }, "geometry": { "type": "Point", "coordinates": [ -112.461673699566688, 45.6795472025508 ] } },
{ "type": "Feature", "properties": { "fid": 2, "GEOUNIT": "Mexico", "name": "Mexico", "Region": "North America" }, "geometry": { "type": "Point", "coordinates": [ -102.523451691888837, 23.947537240640344 ] } },
{ "type": "Feature", "properties": { "fid": 3, "GEOUNIT": "Canada", "name": "Canada", "Region": "North America" }, "geometry": { "type": "Point", "coordinates": [ -98.307770281901142, 61.362063243693676 ] } },
{ "type": "Feature", "properties": { "fid": 1, "GEOUNIT": "New Zealand", "name": "New Zealand", "Region": "Oceania" }, "geometry": { "type": "Point", "coordinates": [ 171.484923465998463, -41.81113556895297 ] } },
{ "type": "Feature", "properties": { "fid": 2, "GEOUNIT": "French Polynesia", "name": "Fr. Polynesia", "Region": "Oceania" }, "geometry": { "type": "Point", "coordinates": [ -144.904943869346425, -14.722274089905531 ] } },
{ "type": "Feature", "properties": { "fid": 3, "GEOUNIT": "Fiji", "name": "Fiji", "Region": "Oceania" }, "geometry": { "type": "Point", "coordinates": [ 165.451954317713131, -17.428580317451242 ] } },
{ "type": "Feature", "properties": { "fid": 4, "GEOUNIT": "Australia", "name": "Australia", "Region": "Oceania" }, "geometry": { "type": "Point", "coordinates": [ 134.491000082134008, -25.732887041730613 ] } },
{ "type": "Feature", "properties": { "fid": 1, "GEOUNIT": "Turkey", "name": "Turkey", "Region": "Europe" }, "geometry": { "type": "Point", "coordinates": [ 35.168953464880722, 39.061602901255611 ] } }
]
}
